City_ID,City,Country,Max Temp,Current Description,Lat,Lng,Hotel Name
0,Hobart,AU,13.34,overcast clouds,-42.8794,147.3294,St Ives Hobart Accommodation Tasmania
1,Hermanus,ZA,15.53,clear sky,-34.4187,19.2345,Misty Waves Boutique Hotel
2,Carnarvon,AU,20.04,scattered clouds,-24.8667,113.6333,Hospitality Carnarvon
4,Isangel,VU,26.48,overcast clouds,-19.55,169.2667,Tanna Lodge
5,Rikitea,PF,25.74,clear sky,-23.1203,-134.9692,People ThankYou
7,Paka,MY,25.96,overcast clouds,4.6374,103.4368,RUMBIA RESORT VILLA Paka Terengganu
9,Mattru,SL,26.28,overcast clouds,7.6244,-11.8332,"Mondkor Town, Bagbo Chiefdom, Bo District"
11,Port Blair,IN,27.59,broken clouds,11.6667,92.75,"Welcomhotel By ITC Hotels, Bay Island, Port Blair"
15,Dubrovnik,HR,12.8,clear sky,42.6481,18.0922,Hotel Dubrovnik Palace
18,Tautira,PF,27.26,light rain,-17.7333,-149.15,Pension Oaoa
20,Cayenne,GF,29.02,broken clouds,4.9333,-52.3333,Hôtel Le Dronmi
21,Hilo,US,25.16,moderate rain,19.7297,-155.09,Hilo Hawaiian Hotel
23,Bilma,NE,29.65,broken clouds,18.6853,12.9164,Expeditions Ténére voyages
27,Portland,US,14.23,broken clouds,45.5234,-122.6762,Embassy Suites by Hilton Portland Downtown
28,Hambantota,LK,26.57,broken clouds,6.1241,81.1185,Bungalow 63
33,Mantua,IT,13.53,overcast clouds,45.1667,10.7833,Hotel la Favorita
34,Oistins,BB,28.05,broken clouds,13.0667,-59.5333,Butterfly Beach Hotel
35,Vaini,TO,25.09,scattered clouds,-21.2,-175.2,Keleti Beach Resort
37,Cockburn Town,TC,26.98,broken clouds,21.4612,-71.1419,Osprey Beach Hotel
38,Faanui,PF,27.47,few clouds,-16.4833,-151.75,Bora-Bora Pearl Beach Resort & Spa
39,Chase,CA,12.82,few clouds,50.8165,-119.6857,Chase Country Inn Motel
40,Xinyang,CN,12.64,overcast clouds,32.1228,114.0656,Jinjiang Inn Style Xinyang Dongfanghong Avenue Culture Center
41,Manggar,ID,26.88,broken clouds,-2.8833,108.2667,Guest Hotel
44,Menongue,AO,17.44,few clouds,-14.6585,17.691,Ritz Lauca
45,Ponta Do Sol,PT,21.74,overcast clouds,32.6667,-17.1,Hotel do Campo
46,Ushuaia,AR,10.81,broken clouds,-54.8,-68.3,Albatross Hotel
48,Gladstone,AU,16.96,clear sky,-23.85,151.25,Highpoint International Hotel
51,Itoman,JP,19.01,clear sky,26.1247,127.6694,Southern Beach Hotel & Resort Okinawa
52,Buala,SB,26.76,overcast clouds,-8.145,159.5921,Maringe Lagoon Lodge
53,Esperance,AU,10.91,broken clouds,-33.8667,121.9,Hospitality Esperance
54,Busselton,AU,13.08,broken clouds,-33.65,115.3333,Observatory Guest House
58,Bathsheba,BB,28.34,broken clouds,13.2167,-59.5167,Atlantis Hotel
59,Muros,ES,14.35,clear sky,42.7762,-9.0603,Apartment Av. Castelao
60,Lorengau,PG,27.44,scattered clouds,-2.0226,147.2712,Lorengau Harbourside Hotel
63,Kieta,PG,25.9,light rain,-6.2167,155.6333,Uruna Bay Retreat
67,Harper,LR,25.33,overcast clouds,4.375,-7.7169,Screensaver
68,Alofi,NU,24.94,broken clouds,-19.0595,-169.9187,Taloa Heights
71,Georgetown,MY,27.96,few clouds,5.4112,100.3354,Cititel Penang
72,Lons-Le-Saunier,FR,11.62,clear sky,46.75,5.75,"Gîte ""La cabane du berger"""
73,Fortuna,US,14.4,clear sky,40.5982,-124.1573,Super 8 by Wyndham Fortuna
74,Meridian,US,12.31,clear sky,43.6121,-116.3915,Courtyard by Marriott Boise West/Meridian
76,Cape Town,ZA,17.17,clear sky,-33.9258,18.4232,"Radisson Blu Hotel Waterfront, Cape Town"
78,Bangangte,CM,18.07,light rain,5.1409,10.5198,Hôtel Cristal Foua Ndigong
80,Lebu,CL,14.56,overcast clouds,-37.6167,-73.65,Hostal Las Lilas
81,Palauig,PH,26.36,clear sky,15.435,119.9045,Alperi Botique Resort
82,Jalu,LY,20.04,overcast clouds,29.0331,21.5482,صاحبة الفخامة
83,Flinders,AU,16.88,overcast clouds,-34.5833,150.8552,Shellharbour Resort & Conference Centre
84,Itarema,BR,27.22,broken clouds,-2.9248,-39.9167,"Sea Lounge! Bar, Club & Restaurant"
85,Port Alfred,ZA,18.37,scattered clouds,-33.5906,26.891,The Halyards Hotel
86,Butaritari,KI,27.41,few clouds,3.0707,172.7902,Isles Sunset Lodge
87,Puerto Ayora,EC,25.98,light rain,-0.7393,-90.3518,Finch Bay Galapagos Hotel
88,Muisne,EC,26.04,broken clouds,0.6,-80.0333,Quinta Samay
89,New Norfolk,AU,13.7,overcast clouds,-42.7826,147.0587,The Shingles Riverside Cottages
91,Asfi,MA,19.57,overcast clouds,32.2994,-9.2372,Hôtel Abda
92,Calvinia,ZA,17.58,clear sky,-31.4707,19.776,Die Lemoenhuis
94,Selestat,FR,13.08,clear sky,48.2598,7.4565,Logis Hôtel Au Parc des Cigognes
95,Laguna,US,21.54,clear sky,38.421,-121.4238,"Holiday Inn Express & Suites Elk Grove Central - Hwy 99, an IHG Hotel"
98,Nchelenge,ZM,21.16,light rain,-9.3451,28.734,KD Travellers Home
99,Zhicheng,CN,11.91,overcast clouds,30.2956,111.5047,Wangjiang Building
100,Ambilobe,MG,23.09,scattered clouds,-13.2,49.05,Hôtel & Restaurant DIANA Ambilobe
101,Mar Del Plata,AR,20.01,clear sky,-38.0023,-57.5575,Gran Hotel Mar del Plata
103,Sao Filipe,CV,21.95,clear sky,14.8961,-24.4956,Hotel Xaguate
104,Inverness,GB,14.95,clear sky,57.4791,-4.224,Glen Mhor Hotel & Apartments
105,Dingle,PH,24.27,broken clouds,10.9995,122.6711,SEGAYA PROPERTY
106,Amambai,BR,22.82,scattered clouds,-23.1042,-55.2258,Keren Hotel
108,Cidreira,BR,20.61,overcast clouds,-30.1811,-50.2056,Hotel Castelo
109,Tagusao,PH,25.85,broken clouds,9.1924,117.8141,Green Villa beach resort
110,Waddan,LY,19.45,clear sky,29.1614,16.139,محل الشريف محمد العايب
111,Cap Malheureux,MU,25.26,scattered clouds,-19.9842,57.6142,Pereybere Hotel & Spa
113,Hithadhoo,MV,28.11,scattered clouds,-0.6,73.0833,Scoop Guest House
114,Necochea,AR,19.36,broken clouds,-38.5473,-58.7368,dyd -mar Hotel
116,Atuona,PF,26.52,few clouds,-9.8,-139.0333,Villa Enata
117,Raichur,IN,29.07,overcast clouds,16.2,77.3667,Hotel CM Residency
118,Burlington,US,11.94,few clouds,39.8835,-74.6413,Delanco Camp
119,Vila,PT,12.49,clear sky,42.0304,-8.1588,Hotel Castrum Villae by Walk Hotels
120,East London,ZA,18.73,overcast clouds,-33.0153,27.9116,Tu Casa
124,Lagoa,PT,14.03,scattered clouds,39.05,-27.9833,Casa Das Faias
130,Saint-Junien,FR,16.32,overcast clouds,45.8833,0.9,"The Originals City, Hôtel Le Boeuf Rouge, Saint-Junien"
131,Nishihara,JP,18.6,clear sky,26.1842,127.7558,Minshuku Agaihama
132,Gotsu,JP,11.11,overcast clouds,35.0,132.2167,Yurusato
133,Toamasina,MG,23.0,broken clouds,-18.1667,49.3833,Hotel H1
134,Kapaa,US,24.15,moderate rain,22.0752,-159.319,Sheraton Kauai Coconut Beach Resort
135,Tiarei,PF,28.89,light rain,-17.5333,-149.3333,Le Rocher de Tahiti
136,Caravelas,BR,24.91,overcast clouds,-17.7125,-39.2481,Pousada dos Navegantes
138,Bredasdorp,ZA,15.43,scattered clouds,-34.5322,20.0403,Bredasdorp Country Manor
139,Salalah,OM,28.05,scattered clouds,17.0151,54.0924,"HAMDAN PLAZA HOTEL SALALAH, an HTG Hotel"
140,Kavieng,PG,28.32,overcast clouds,-2.5744,150.7967,Nusa Island Retreat
141,Batticaloa,LK,26.41,broken clouds,7.7102,81.6924,Grand Star Guest House
147,Namibe,AO,24.25,scattered clouds,-15.1961,12.1522,Hotel Chik Chik Namibe
151,Meulaboh,ID,25.63,overcast clouds,4.1363,96.1285,Kost Pria
152,Shimoda,JP,12.84,overcast clouds,34.6667,138.95,Shimoda Tokyu Hotel
153,Huancavelica,PE,11.02,few clouds,-12.7667,-74.9833,Hotel Victoria Huancavelica
154,Marawi,PH,20.27,broken clouds,7.9986,124.2928,Derogongan Residence
155,Kirakira,SB,26.69,overcast clouds,-10.4544,161.9205,SanBiz Lodge
156,Saint-Philippe,RE,24.77,light rain,-21.3585,55.7679,"Chambres d'hôte ""La Trinité"""
157,Kruisfontein,ZA,16.05,clear sky,-34.0033,24.7314,Oyster Bay House Rental
159,Mayumba,GA,25.81,overcast clouds,-3.432,10.6554,LIKWALE LODGE
161,Aleksandrov Gay,RU,12.05,overcast clouds,50.147,48.5704,Gostinitsa
164,Salinas,US,19.45,clear sky,36.6777,-121.6555,Laurel Inn & Conference Center
165,Chuy,UY,19.73,overcast clouds,-33.6971,-53.4616,Nuevo Hotel Plaza
167,Cabedelo,BR,29.37,broken clouds,-6.9811,-34.8339,Hotel Pigalle
168,Halifax,CA,10.0,broken clouds,44.6453,-63.5724,Hotel Halifax
169,Mocuba,MZ,21.48,clear sky,-16.8392,36.9856,Phama Lodge
172,Mayo,US,14.59,clear sky,38.8876,-76.5119,Resorts Resource Group International
176,Castro,BR,18.67,clear sky,-24.7911,-50.0119,CHACARA BAILLY
177,Constitucion,CL,15.79,scattered clouds,-35.3333,-72.4167,Hotel Boutique Las Azucenas
178,Islamkot,PK,24.72,clear sky,24.6997,70.17699999999999,Haji Hotel
181,Garowe,SO,27.89,broken clouds,8.4054,48.4845,Curubo Hotel
183,Lompoc,US,22.14,clear sky,34.6391,-120.4579,"Holiday Inn Express Lompoc, an IHG Hotel"
185,Saldanha,ZA,16.03,clear sky,-33.0117,17.9442,Blue Bay Lodge
188,Chaman,PK,24.04,overcast clouds,30.9236,66.4512,Niamat parda Center chaman
189,Hami,CN,12.34,clear sky,42.8,93.45,Laoyutang Resort
190,Frei Paulo,BR,26.02,overcast clouds,-10.5494,-37.5344,Restaurante e Pousada Nossa Senhora De Fátima
192,Fairview,US,11.42,broken clouds,40.8126,-73.999,Homewood Suites by Hilton Edgewater-NYC Area
193,Ribeira Grande,PT,16.22,few clouds,38.5167,-28.7,Quinta da Meia Eira
194,Rafraf,TN,13.18,overcast clouds,37.1904,10.1837,Les Jardins de la Mer Ghar el Melh
197,Tumut,AU,13.46,overcast clouds,-35.3,148.2167,Amaroo Motel
199,Samarai,PG,27.61,overcast clouds,-10.6167,150.6667,Nuli Sapi
200,Kemin,KG,16.05,overcast clouds,42.7846,75.6892,Hotel Kok-Oirok
203,Talas,TR,15.37,broken clouds,38.6908,35.5538,Fimaj Residence
205,Beira,MZ,27.05,scattered clouds,-19.8436,34.8389,Beira Terrace Hotel
206,Axim,GH,26.36,overcast clouds,4.8699,-2.2405,Axim Beach Resort And Spa
209,Quarai,BR,21.12,broken clouds,-30.3875,-56.4514,Hotel Casino San Eugenio del Cuareim
210,Port Macquarie,AU,13.83,few clouds,-31.4333,152.9167,Rydges Port Macquarie
211,Veraval,IN,26.67,clear sky,20.9,70.3667,Lords Inn Somnath
213,Mahebourg,MU,25.16,broken clouds,-20.4081,57.7,Shandrani Beachcomber Resort & Spa
214,Tsabong,BW,18.54,light rain,-26.0217,22.401,Springbok Motel
215,Huilong,CN,13.85,overcast clouds,31.8111,121.655,Hilton Garden Inn Qidong
216,Fukue,JP,15.42,overcast clouds,32.6881,128.8419,Goto Guesthouse Utojuku & SA Car Rental
219,Los Llanos De Aridane,ES,18.86,few clouds,28.6585,-17.9182,Valle Aridane
220,Touros,BR,27.86,overcast clouds,-5.1989,-35.4608,INN NEW HORIZON
222,Acari,PE,24.94,clear sky,-15.4311,-74.6158,HOSPEDAJE XIMENA
225,Vao,NC,25.06,scattered clouds,-22.6667,167.4833,Hotel Kou-Bugny
226,Sakakah,SA,25.76,clear sky,29.9697,40.2064,Fakhamat Al Orjoana Apartment
227,Hobyo,SO,28.56,light rain,5.3505,48.5268,Iftin hotel hobyo
229,Mount Isa,AU,15.87,light rain,-20.7333,139.5,ibis Styles Mt Isa Verona
230,Asuncion,PY,26.69,few clouds,-25.3007,-57.6359,"Crowne Plaza Asuncion, an IHG Hotel"
232,Pacific Grove,US,19.02,clear sky,36.6177,-121.9166,Lovers Point Inn
233,Wete,TZ,25.45,overcast clouds,-5.0559,39.7294,Sharook Riviera Grand Lodge
234,Mount Gambier,AU,11.95,overcast clouds,-37.8333,140.7667,The Commodore
235,Avarua,CK,27.03,few clouds,-21.2078,-159.775,Paradise Inn
236,Hokitika,NZ,11.64,clear sky,-42.7167,170.9667,Beachfront Hotel Hokitika
237,Balykshi,KZ,10.0,clear sky,47.0667,51.8667,Гостиница Golden Rose
238,Vanimo,PG,25.33,overcast clouds,-2.6741,141.3028,Vahmoneh Lodge Vanimo
242,Urucara,BR,27.07,moderate rain,-2.5364,-57.76,Pousada Maria Bonita
244,Saint-Gaudens,FR,13.9,overcast clouds,43.0833,0.6667,L'Ardiégeoise
245,Arraial Do Cabo,BR,23.98,broken clouds,-22.9661,-42.0278,Pousada Porto Praia
246,Murwillumbah,AU,18.01,scattered clouds,-28.3167,153.4,Murwillumbah Motor Inn
248,Lata,PT,16.62,overcast clouds,40.1629,-8.3327,Casa Maquia
249,Hamilton,US,11.6,clear sky,39.1834,-84.5333,Six Acres Bed & Breakfast
252,Jinxiang,CN,14.09,overcast clouds,27.4327,120.6062,Wolong Village
253,Victoria,HK,22.32,overcast clouds,22.2855,114.1577,Mini Hotel Central
254,Maldonado,UY,20.66,overcast clouds,-34.6667,-54.9167,La Cimarrona
255,Port Hedland,AU,26.03,scattered clouds,-20.3167,118.5667,The Esplanade Hotel
256,Shingu,JP,14.09,overcast clouds,33.7333,135.9833,Shingu UI Hotel
258,Rio Grande,BR,22.06,light rain,-32.035,-52.0986,Hotel Atlântico Rio Grande
259,Ankazoabo,MG,24.57,overcast clouds,-22.2833,44.5167,ENCEIN BUREAU CISCO
264,Les Cayes,HT,27.88,overcast clouds,18.2,-73.75,Villa Orphee
265,Manono,CD,21.46,light rain,-7.3,27.4167,Hotel hewa bora
266,Hanover,DE,10.96,clear sky,52.3705,9.7332,Central Hotel Kaiserhof
269,Lujan,AR,21.84,overcast clouds,-34.5703,-59.105,Hotel Biarritz
270,Almoloya,MX,27.25,clear sky,19.7,-98.4,Motel Rancho Viejo
271,Bambous Virieux,MU,25.14,moderate rain,-20.3428,57.7575,Casa Tia Villa
273,Camopi,GF,25.03,light rain,3.1655,-52.3158,La pousada
277,Margate,GB,13.5,overcast clouds,51.3813,1.3862,Premier Inn Margate hotel
278,Berbera,SO,27.65,clear sky,10.4396,45.0143,IBCO REAL ESTATE PROPERTY
282,Biak,ID,24.15,broken clouds,-0.9131,122.8766,Penginapan Kim
283,Badou,TG,25.91,overcast clouds,7.5833,0.6,Hôtel Abuta
284,Kralendijk,BQ,27.99,broken clouds,12.15,-68.2667,Divi Flamingo Beach Resort & Casino
285,Ancud,CL,15.13,overcast clouds,-41.8697,-73.8203,Hotel Arena Gruesa
286,Lazaro Cardenas,MX,28.56,overcast clouds,17.9583,-102.2,HOTEL QUINTA ANTIGUA
287,Yulara,AU,16.91,clear sky,-25.2406,130.9889,Desert Gardens Hotel - Ayers Rock Resort
290,Nishiwaki,JP,13.36,broken clouds,34.9833,134.9667,Nishiwaki Royal Hotel
291,Colares,PT,17.1,few clouds,38.7992,-9.4469,Arribas Sintra Hotel
293,Coquimbo,CL,15.85,scattered clouds,-29.9533,-71.3436,Hotel San Juan
294,San Quintin,MX,20.01,clear sky,30.4833,-115.95,Don Eddie's Sport Fishing Center
295,Changli,CN,12.72,overcast clouds,39.7042,119.1506,7Days Inn Qinhuangdao Changli Jieyang Street
297,Cuenca,EC,15.07,light rain,-2.8833,-78.9833,Hotel Cuenca
298,Long Beach,US,26.1,clear sky,33.766999999999996,-118.1892,The Westin Long Beach
299,Bethel,US,10.02,overcast clouds,41.3712,-73.414,Courtyard by Marriott Danbury
300,Porto Novo,BJ,28.9,light rain,6.4965,2.6036,Tour Eiffel Hotel Benin
304,Ugoofaaru,MV,28.93,overcast clouds,5.6667,73.0,Ungoofaaru Inn
305,Shiraz,IR,15.69,clear sky,29.6036,52.5388,Shams Hotel
307,Talara,PE,29.42,clear sky,-4.5772,-81.2719,Hostal Oro Negro
309,Sandakan,MY,25.82,few clouds,5.8402,118.1179,Hotel Sandakan
310,Bam,IR,22.32,few clouds,29.105999999999998,58.357,Bam Tourist Hotel
313,Gondanglegi,ID,24.17,overcast clouds,-7.7479,112.0132,pondok pesantren mamba'ul 'ulum selo rejo
314,Wang Saphung,TH,24.85,clear sky,17.301,101.7685,โรงแรมวังรีสอร์ท
315,Las Vegas,US,28.47,clear sky,36.175,-115.1372,Plaza Hotel & Casino
317,Pyapon,MM,26.86,scattered clouds,16.2833,95.6833,Aung Naing Thu Motel
318,Najran,SA,28.36,overcast clouds,17.4924,44.1277,محمد هادي ال فطيح
320,Padang,ID,25.76,heavy intensity rain,-0.9492,100.3543,Mercure Padang
321,Ukiah,US,19.69,clear sky,39.1502,-123.2078,Hampton Inn Ukiah
323,Seoul,KR,10.76,broken clouds,37.5683,126.9778,롯데호텔 서울
327,Santa Cruz,BO,27.03,broken clouds,-17.8,-63.1667,Aviador Hotel Boutique
328,Russell,US,20.6,heavy intensity rain,32.3502,-85.1999,Macs
329,Mandapeta,IN,25.38,broken clouds,16.8667,81.9333,Sri satyanarayana vilas kokas Lodge
330,Aguas Formosas,BR,20.8,overcast clouds,-17.0822,-40.9358,HOTEL HAVAY PALACE
331,Praia Da Vitoria,PT,18.14,few clouds,38.7333,-27.0667,Hotel Branco I
332,Buraydah,SA,26.25,clear sky,26.326,43.975,Mövenpick Qassim
333,Half Moon Bay,US,20.08,clear sky,37.4636,-122.4286,"The Ritz-Carlton, Half Moon Bay"
336,Rio Verde De Mato Grosso,BR,28.89,clear sky,-18.9181,-54.8442,Quedas Palace Hotel
337,Sibolga,ID,25.31,moderate rain,1.7427,98.7792,Hotel Syariah CN Darussalam
338,Durban,ZA,18.29,light rain,-29.8579,31.0292,Hilton Durban
339,Zharkent,KZ,17.58,few clouds,44.1628,80.0,гостиница Satti
340,Northam,GB,11.81,few clouds,51.0333,-4.2167,Durrant House Hotel
342,Bereda,ES,11.9,clear sky,43.2686,-7.5406,Pazo de Verdes
343,Fort Wellington,GY,27.37,overcast clouds,6.4,-57.6,TE'AMO Entertainment Park
344,Saint George,US,27.57,clear sky,37.1041,-113.5841,Best Western Plus Abbey Inn
348,Potsdam,DE,11.12,clear sky,52.3989,13.0657,Dorint Hotel Sanssouci Berlin/Potsdam
350,Camacha,PT,16.68,scattered clouds,33.0833,-16.3333,Hotel Porto Santo & Spa
351,Maloh,PH,26.51,overcast clouds,9.056000000000001,122.9851,Centralle District Beach Resort
352,Tura,IN,20.89,clear sky,25.5198,90.2201,Hotel RIKMAN Continental
354,Tukrah,LY,16.85,overcast clouds,32.5341,20.5791,Lagrota restaurant
355,Nouadhibou,MR,19.99,scattered clouds,20.930999999999997,-17.0347,El Medina
357,Pujehun,SL,26.42,overcast clouds,7.3581,-11.7208,Fanny Guesthouse
359,Komsomolskiy,UZ,19.4,few clouds,40.4272,71.7189,Ikathouse
361,Wuzhou,CN,14.53,overcast clouds,23.4833,111.3167,Wuzhou Hostel
364,Wanning,CN,24.32,broken clouds,18.8003,110.3967,Paradise Hotel
365,Odweyne,SO,24.0,overcast clouds,9.4092,45.06399999999999,Eng Hiirey House
366,Fort-Shevchenko,KZ,12.97,clear sky,44.5086,50.263000000000005,Oasis hotel Bautino
367,Namatanai,PG,27.02,overcast clouds,-3.6667,152.4333,Seagulls Inn Namatani
368,Kalmunai,LK,26.01,broken clouds,7.4167,81.8167,VS Villa
370,Boysun,UZ,17.3,overcast clouds,38.2061,67.1986,Gaza Hotel
377,Kijang,KR,10.85,overcast clouds,35.2442,129.2139,Samyang Beach Villa
378,Ahipara,NZ,19.99,overcast clouds,-35.1667,173.1667,Ahipara Holiday Park
379,Paita,PE,22.7,clear sky,-5.0892,-81.1144,Hotel Náutico de Paita
380,Luena,AO,17.58,overcast clouds,-11.7833,19.9167,Hotel Kandamba
381,Karpathos,GR,16.98,clear sky,35.507,27.2132,Alex
382,Vangaindrano,MG,22.51,few clouds,-23.35,47.6,Hotel Fanilo
385,Rocha,UY,18.97,overcast clouds,-34.4833,-54.3333,Hotel Arrarte
386,Presidente Medici,BR,27.22,light rain,-11.1753,-61.9014,Oliveira Palace Hotel
388,Chokwe,MZ,18.38,light rain,-24.5333,32.9833,Complexo Sonho Real
389,Kavaratti,IN,28.77,scattered clouds,10.5669,72.642,Hotels in Lakshadweep Islands
390,Acapulco,MX,29.9,clear sky,16.8634,-99.8901,HS Hotsson Smart Acapulco
391,Mahon,ES,13.31,clear sky,39.8885,4.2658,ARTIEM Capri
392,Gambela,ET,25.96,overcast clouds,8.25,34.5833,Solomon Debebe Hotel
394,Saint-Francois,FR,12.69,clear sky,46.4154,3.9054,Manoir Du Bonheur
395,Mumford,GH,27.47,light rain,5.2618,-0.759,Spanish Villa
396,Sao Joao Da Barra,BR,26.05,clear sky,-21.6403,-41.0511,Pousada Porto De Canoas
399,Sakti,IN,28.21,clear sky,22.0333,82.9667,C.B. Sweet Home
400,Manadhoo,MV,28.86,overcast clouds,5.7667,73.3833,Bon Abri maldives
402,Vila Velha,BR,26.97,clear sky,-20.3297,-40.2925,Hotel Vitória Palace
405,La Baule-Escoublac,FR,14.81,clear sky,47.2922,-2.364,Hôtel Barrière Le Royal La Baule
406,Marsh Harbour,BS,25.32,few clouds,26.5412,-77.0636,Abaco Beach Resort
408,Helmond,NL,15.23,clear sky,51.4817,5.6611,Golden Tulip
413,Phuket,TH,27.12,few clouds,8.0,98.25,The Surin
415,Viedma,AR,21.63,clear sky,-40.8135,-62.9967,Hotel Cristal
418,Matadi,CD,26.63,overcast clouds,-5.8167,13.45,Hotel Vivi Palace
425,Vila Franca Do Campo,PT,16.23,broken clouds,37.7167,-25.4333,Pestana Bahia Praia
427,La Ligua,CL,19.36,clear sky,-32.4524,-71.2311,Hotel Anchimallen
429,Sao Mateus,BR,23.84,overcast clouds,-18.7161,-39.8589,Hotel Rio Norte
430,Miri,MY,25.08,few clouds,4.4148,114.0089,"Mega Hotel, Miri"
431,Port-Gentil,GA,26.98,thunderstorm,-0.7193,8.7815,Fengshui Residence
432,Markapur,IN,28.41,broken clouds,15.7333,79.2833,VIHARI GRAND INN
433,Show Low,US,22.82,clear sky,34.2542,-110.0298,Hampton Inn & Suites Show Low-Pinetop
436,Tocopilla,CL,19.59,few clouds,-22.092,-70.1979,Hotel Galvarino
439,Bayir,TR,19.29,clear sky,37.2687,28.2167,Hotel Babadag
440,Nizwa,OM,28.83,clear sky,22.9333,57.5333,Orient Apartments
442,Ko Samui,TH,29.13,broken clouds,9.5357,99.9357,The Passage
443,Oriximina,BR,28.97,moderate rain,-1.7656,-55.8661,Pousada Tia Amélia
445,Bosaso,SO,28.61,clear sky,11.2842,49.1816,Red Sea Hotel
446,West Point,US,20.68,overcast clouds,33.6076,-88.6503,Hampton Inn & Suites West Point
447,Williams Lake,CA,11.7,few clouds,52.1415,-122.1445,Stampeder Motel
448,Gilgit,PK,17.05,clear sky,35.9221,74.3087,Tourist Hamlet Gilgit
450,Port Hardy,CA,10.1,few clouds,50.6996,-127.4199,Airport Inn-Port Hardy
451,Basco,PH,24.58,overcast clouds,20.4487,121.9702,Nathaniel's Lodge
453,Lumby,CA,12.8,clear sky,50.2498,-118.969,Twin Creeks Motel
454,Mwinilunga,ZM,17.14,light rain,-11.7358,24.4293,Kwakuwahi Lodge
455,Rengo,CL,23.18,few clouds,-34.4167,-70.8667,Hostal Cartagena
456,Hereford,GB,13.67,light rain,52.0568,-2.7148,The Green Dragon Hotel
458,Pasighat,IN,17.69,overcast clouds,28.0667,95.3333,Siang Guest House
459,Bengkulu,ID,24.13,overcast clouds,-3.8004,102.2655,Grage Hotel Bengkulu
462,Tual,ID,28.75,overcast clouds,-5.6667,132.75,Grand Vilia Hotel
467,Bolama,GW,27.19,few clouds,11.5833,-15.4667,Hotel Samaritana
470,Guerrero Negro,MX,20.84,broken clouds,27.9769,-114.0611,"Casa Laguna, Bed & Breakfast"
471,Lasem,ID,25.87,overcast clouds,-6.6922,111.4527,"Nyah Lasem | Museum, Warung & Community Center"
472,Maun,BW,23.98,scattered clouds,-19.9833,23.4167,Enviro Villa
473,Karonga,MW,22.96,light rain,-9.9333,33.9333,Sumuka Inn
475,Richards Bay,ZA,17.64,light rain,-28.783,32.0377,BON Hotel Waterfront Richards Bay
476,Mbeya,TZ,15.07,broken clouds,-8.9,33.45,Leda Lodge
477,Vieux-Habitants,GP,28.76,overcast clouds,16.0589,-61.7659,Gîtes Dardanelle
478,San Andres,CO,29.01,few clouds,12.5847,-81.7006,Hotel Arena Blanca
479,Guayaramerin,BO,27.03,broken clouds,-10.8368,-65.3614,Hostal Funf
482,Virbhadra,IN,25.08,few clouds,30.0712,78.2819,GANGA KINARE - A Riverside Boutique Resort
483,Tucumcari,US,27.19,clear sky,35.1717,-103.725,"Holiday Inn Express & Suites Tucumcari, an IHG Hotel"
488,Rawson,AR,18.71,clear sky,-43.3002,-65.1023,Hosteria Sampedro
489,Luanda,AO,27.0,broken clouds,-8.8368,13.2343,EPIC SANA Luanda
492,Elat,IL,28.91,clear sky,29.5581,34.9482,Club Hotel Eilat
493,Domoni,KM,25.98,few clouds,-12.2569,44.5319,Al Djadid
495,Karratha,AU,29.22,few clouds,-20.7377,116.8463,ibis Styles Karratha
499,Hirara,JP,21.2,broken clouds,24.8,125.2833,Hotel Atoll Emerald Miyakojima
500,Puerto Narino,CO,28.37,light rain,-3.7703,-70.3831,Eware Refugio Amazonico
502,Aksu,CN,14.53,broken clouds,41.1231,80.2644,Pudong Holiday Hotel
503,Quatre Cocos,MU,25.06,moderate rain,-20.2078,57.7625,Sunrise Attitude Hotel
504,Siniscola,IT,13.75,clear sky,40.5719,9.6922,Hotel Sa Tanca E Bore
505,Maragogi,BR,26.78,scattered clouds,-9.0122,-35.2225,Salinas do Maragogi All Inclusive Resort
506,Mwaro,BI,14.07,light rain,-3.5,29.6667,Lycée Mwaro
508,Manokwari,ID,25.95,overcast clouds,-0.8667,134.0833,Swiss Belhotel Manokwari
510,Freeport,US,11.66,broken clouds,40.6576,-73.5832,The Freeport Inn and Marina
514,Rovigo,IT,11.84,scattered clouds,45.08,11.793,Best Western Hotel Cristallo
515,Navoi,UZ,19.71,overcast clouds,40.0844,65.3792,Silk Road Hotel Termez
516,Pisco,PE,21.12,clear sky,-13.7,-76.2167,Hotel San Isidro Oficial
518,Korla,CN,13.64,clear sky,41.7597,86.1469,Gulisitan Hotel
519,Sao Sebastiao,BR,21.24,overcast clouds,-23.76,-45.4097,Hotel Recanto dos Pássaros
520,Soure,BR,27.49,light rain,-0.7167,-48.5233,Casarão da Amazônia
521,Ulladulla,AU,15.5,overcast clouds,-35.35,150.4667,Sandpiper Motel
525,Brindisi,IT,13.2,overcast clouds,40.5833,17.6667,Agriturismo Tibitone
529,Ilam,NP,18.53,clear sky,26.9167,87.9167,चियाबारी कटेज
530,Coihaique,CL,14.34,clear sky,-45.5752,-72.0662,Diego De Almagro Coyhaique
531,Aliaga,PH,26.72,few clouds,15.5167,120.8667,Jhenie rich ramos
532,Byron Bay,AU,17.94,broken clouds,-28.65,153.6167,Backpackers Inn
533,Xambioa,BR,27.66,light rain,-6.4111,-48.5364,Pousada Do Sol
535,Porbandar,IN,26.69,clear sky,21.6422,69.6093,Lords Inn Porbandar
536,Palembang,ID,26.05,broken clouds,-2.9167,104.7458,ASTON Palembang Hotel & Conference Center
540,Likasi,CD,17.02,scattered clouds,-10.9814,26.7333,TABERNACLE DE LIKASI
541,Charters Towers,AU,18.0,clear sky,-20.1,146.2667,Cattleman's Rest Motor Inn
542,Port Elizabeth,ZA,18.51,broken clouds,-33.918,25.5701,39 On Nile Guest House
544,Poggibonsi,IT,12.38,few clouds,43.4724,11.1456,Hotel Villa San Lucchese
546,Tatishchevo,RU,11.93,overcast clouds,51.6703,45.5953,AURA
548,General Roca,AR,23.84,clear sky,-39.0333,-67.5833,Hotel El Recreo
549,Juba,SS,27.81,broken clouds,4.8517,31.5825,ROYAL PALACE HOTEL - JUBA
550,Wilmington,US,23.33,clear sky,34.2257,-77.9447,"Hotel Ballast Wilmington, Tapestry Collection by Hilton"
552,Sa Kaeo,TH,25.16,overcast clouds,13.75,102.3333,บ้านร่มฉัตร รีสอร์ท
556,Antofagasta,CL,17.6,few clouds,-23.65,-70.4,"Holiday Inn Express Antofagasta, an IHG Hotel"
559,Ixtapa,MX,26.57,scattered clouds,20.7,-105.2,hotel la terminal
560,Mount Vernon,US,11.08,broken clouds,40.9126,-73.8371,Ramada by Wyndham Bronx
561,Kahului,US,26.01,scattered clouds,20.8947,-156.47,Maui Seaside Hotel
563,Conceicao Da Barra,BR,24.45,overcast clouds,-18.5933,-39.7322,Cricaré Praia Hotel
564,Taperoa,BR,26.82,broken clouds,-7.2075,-36.8267,Hotel Casarão Antigo
566,Ohara,JP,14.71,overcast clouds,35.25,140.3833,Sakigake
568,North Bend,US,12.36,clear sky,43.4065,-124.2243,Red Lion Hotel Coos Bay
569,Galeana,MX,29.61,clear sky,24.8333,-100.0667,Mirador
571,Safaga,EG,29.02,overcast clouds,26.7292,33.9365,Lamar Resort Abu Soma
572,Ponta Delgada,PT,16.4,few clouds,37.7333,-25.6667,Vila Nova Hotel
573,Gorontalo,ID,23.06,overcast clouds,0.5412,123.0595,Maqna Hotel by Prasanthi
574,Warri,NG,25.19,overcast clouds,5.5167,5.75,BON Hotel Delta
575,Sola,VU,27.57,overcast clouds,-13.8833,167.55,Leumerus Bungalows
581,Bambanglipuro,ID,25.24,overcast clouds,-7.95,110.2833,Puri Brata
582,Muncar,ID,25.2,light rain,-8.4333,114.3333,Zaky Homestay
585,Baghdad,IQ,21.95,scattered clouds,33.3406,44.4009,Baghdad Hotel
586,Bafra,TR,17.39,overcast clouds,41.5678,35.9069,Sevgi Otel
587,Rio Gallegos,AR,16.03,clear sky,-51.6226,-69.2181,Hotel Santa Cruz
590,San Joaquin,US,20.29,clear sky,37.9333,-121.3011,University Plaza Waterfront Hotel
593,Vung Tau,VN,27.79,scattered clouds,10.345999999999998,107.0843,Seaside Resort
594,Iquique,CL,20.02,clear sky,-20.2208,-70.1431,Backpacker`s Hostel Iquique
596,Chongwe,ZM,17.52,few clouds,-15.3292,28.682,Grakas Lodge
599,Moerai,PF,26.19,few clouds,-22.4333,-151.3333,Le Manotel
605,Talcahuano,CL,10.82,overcast clouds,-36.7167,-73.1167,departamento comodo
607,Bahia Blanca,AR,21.72,few clouds,-38.7196,-62.2724,Hotel Argos
609,Alice Springs,AU,22.75,scattered clouds,-23.7,133.8833,Desert Palms Alice Springs
611,Tateyama,JP,12.83,overcast clouds,34.9833,139.8667,Tateyama Seaside Hotel
612,Sinnamary,GF,27.14,broken clouds,5.3833,-52.95,ALETHEIA Appartement Sinnamary
614,Ponta Pora,BR,22.95,few clouds,-22.5361,-55.7256,Hotel Pousada do Bosque
615,Rumonge,BI,22.0,light rain,-3.9736,29.4386,Kwetu Guest House
618,Kuna,US,12.14,clear sky,43.4918,-116.4201,Winfield Springs
619,Batemans Bay,AU,15.61,overcast clouds,-35.7167,150.1833,Batemans Bay Marina Resort
624,Plettenberg Bay,ZA,15.18,clear sky,-34.0527,23.3716,Thanda Vista B&B
626,La Rioja,ES,11.88,overcast clouds,42.25,-2.5,Casa Concejos
627,Grand-Santi,GF,25.87,overcast clouds,4.25,-54.3833,Hotel La Villa Couacou
628,Souillac,MU,25.21,light rain,-20.5167,57.5167,Shanti Maurice Resort & Spa
631,Sambava,MG,24.53,broken clouds,-14.2667,50.1667,Melrose
632,Cururupu,BR,26.92,broken clouds,-1.8283,-44.8683,POUSADA TRAVÉS'CIA
633,Kununurra,AU,23.99,few clouds,-15.7667,128.7333,Hotel Kununurra
635,Limbang,MY,26.06,scattered clouds,4.75,115.0,Purnama Hotel
637,Kutum,SD,26.43,clear sky,14.2,24.6667,Dibbo areaمنطقة دبو
640,Bugiri,UG,18.28,moderate rain,0.5714,33.7417,Gilgal Guest House
642,Orange,US,27.04,clear sky,33.7,-117.7675,Meadows
643,Reims,FR,13.41,clear sky,49.1667,4.0833,Château de Rilly
644,Geraldton,AU,11.23,clear sky,-28.7667,114.6,Broadwater Mariner Resort
645,Gimbi,ET,15.15,overcast clouds,9.1667,35.8333,Sam home
647,Vikhorevka,RU,12.77,overcast clouds,56.1201,101.1636,Pansionat Sosnovyye Rodniki
648,Payson,US,15.3,few clouds,40.0444,-111.7321,Quality Inn Payson I-15
649,Det Udom,TH,25.9,overcast clouds,14.905999999999999,105.0784,Chatsuda Resort
650,Albertville,US,18.22,clear sky,34.2676,-86.2089,Microtel Inn & Suites by Wyndham Albertville
651,Sorong,ID,27.87,few clouds,-0.8833,131.25,Waigo Splash Hotel
652,Emerald,AU,16.08,clear sky,-23.5333,148.1667,The Irish Village
654,Lunenburg,CA,11.38,overcast clouds,44.3835,-64.3155,Lunenburg Arms Hotel
656,Puerto Del Rosario,ES,22.86,scattered clouds,28.5004,-13.8627,Hotel JM Puerto del Rosario
657,Uthal,PK,27.16,clear sky,25.8072,66.6219,Al-Mustafa Hotel
660,Mansfield,GB,14.75,overcast clouds,53.1333,-1.2,Mansfield Lodge Hotel
661,Payo,ID,22.88,light rain,-3.7508,103.6372,Mess keban agung
663,Guatire,VE,29.56,overcast clouds,10.4762,-66.5427,Parque Residencial Canaima I
666,Leshan,CN,11.58,overcast clouds,29.5623,103.7639,Leshan Haiyun International Youth Hostel
669,Lucapa,AO,20.23,overcast clouds,-8.4192,20.7447,Residência Ulisses Dos Santos
670,Eureka,US,15.93,overcast clouds,40.8021,-124.1637,Eureka Inn Trademark By Wyndham
671,Bodden Town,KY,29.44,broken clouds,19.2833,-81.25,Will T Place
672,Kerema,PG,25.24,broken clouds,-7.9631,145.7785,Frena Lodge
673,Guanare,VE,29.01,overcast clouds,9.0418,-69.7421,Nuevo Hotel Coromoto
674,Labuhan,ID,26.59,overcast clouds,-6.8844,112.2051,DoubleFAG
675,Kwinana,AU,12.67,clear sky,-32.25,115.7667,Rockingham Apartments
676,Brigantine,US,13.35,scattered clouds,39.4101,-74.3646,Legacy Vacation Resorts - Brigantine Beach
678,Comodoro Rivadavia,AR,21.92,clear sky,-45.8667,-67.5,Austral Hotel
679,Wuan,CN,11.42,overcast clouds,31.6836,112.0044,武镇大酒店
681,Petatlan,MX,29.89,broken clouds,17.5167,-101.2667,Hotel California Petatlán
682,Remontnoye,RU,12.06,overcast clouds,46.5614,43.6501,Remontnoe
683,Puerto Leguizamo,CO,26.72,overcast clouds,-0.1934,-74.7819,la casona de juancho
686,Rionegro,CO,19.15,broken clouds,6.1552,-75.3737,Hotel Llanogrande Inn
688,Rock Sound,BS,24.78,overcast clouds,24.9,-76.2,Pink Corral Bay Property
690,Bud,US,11.07,overcast clouds,39.446999999999996,-86.1758,Ted McQuinn Trust
691,Wamba,NG,26.13,light rain,8.9333,8.6,Roma Zee Guest House Annex
692,Poco Verde,BR,25.65,heavy intensity rain,-10.7083,-38.1833,Hotel Santa Cruz
693,Pascagoula,US,29.03,overcast clouds,30.3658,-88.5561,Regency Inn
694,Waingapu,ID,26.26,overcast clouds,-9.6567,120.2641,Pondok Wisata Elim
696,Sydney,AU,15.88,clear sky,-33.8679,151.2073,The Grace Sydney
698,Tutoia,BR,26.87,overcast clouds,-2.7619,-42.2744,Pousada Guará's
699,Santiago Del Estero,AR,25.18,clear sky,-27.7951,-64.2615,Apartamentos Castelli 90
